{
"type": "FeatureCollection",
"name": "waterForecastStations",
"features": [
{ "type": "Feature", "properties": { "NO": 3.0, "HYMOS_ID": 14501.0, "STATION_NA": "Stung Treng", "U_TM_X": 0.0, "UTM_Y": 1495467.1139400001, "TYPE_OF_DA": "WL, Rainfall", "LINE_AGENC": "DHRW", "TYPE_OF__1": 3.0, "ID_LINE_AG": 0.0, "X": 105.94497, "Y": 13.52857 }, "geometry": { "type": "Point", "coordinates": [ 105.94497, 13.52857 ] } },
{ "type": "Feature", "properties": { "NO": 4.0, "HYMOS_ID": 14901.0, "STATION_NA": "Kratie", "U_TM_X": 0.0, "UTM_Y": 1379180.5075900001, "TYPE_OF_DA": "WL, Rainfall", "LINE_AGENC": "DHRW", "TYPE_OF__1": 3.0, "ID_LINE_AG": 0.0, "X": 106.02008, "Y": 12.47687 }, "geometry": { "type": "Point", "coordinates": [ 106.02008, 12.47687 ] } },
{ "type": "Feature", "properties": { "NO": 5.0, "HYMOS_ID": 19802.0, "STATION_NA": "Kompong Cham", "U_TM_X": 0.0, "UTM_Y": 1325951.3280400001, "TYPE_OF_DA": "WL, Rainfall", "LINE_AGENC": "DHRW", "TYPE_OF__1": 3.0, "ID_LINE_AG": 0.0, "X": 105.46848, "Y": 11.99704 }, "geometry": { "type": "Point", "coordinates": [ 105.46848, 11.99704 ] } },
{ "type": "Feature", "properties": { "NO": 6.0, "HYMOS_ID": 33401.0, "STATION_NA": "Chaktomuk", "U_TM_X": 0.0, "UTM_Y": 1277459.9084900001, "TYPE_OF_DA": "WL, Rainfall", "LINE_AGENC": "DHRW", "TYPE_OF__1": 3.0, "ID_LINE_AG": 0.0, "X": 104.93682, "Y": 11.55888 }, "geometry": { "type": "Point", "coordinates": [ 104.93682, 11.55888 ] } },
{ "type": "Feature", "properties": { "NO": 7.0, "HYMOS_ID": 20101.0, "STATION_NA": "P.P. Port", "U_TM_X": 0.0, "UTM_Y": 1279227.83076, "TYPE_OF_DA": "WL", "LINE_AGENC": "DHRW", "TYPE_OF__1": 2.0, "ID_LINE_AG": 0.0, "X": 104.92699, "Y": 11.57487 }, "geometry": { "type": "Point", "coordinates": [ 104.92699, 11.57487 ] } },
{ "type": "Feature", "properties": { "NO": 8.0, "HYMOS_ID": 20102.0, "STATION_NA": "Prek Kdam", "U_TM_X": 0.0, "UTM_Y": 1305895.30216, "TYPE_OF_DA": "WL, Rainfall", "LINE_AGENC": "DHRW", "TYPE_OF__1": 3.0, "ID_LINE_AG": 0.0, "X": 104.80015, "Y": 11.81598 }, "geometry": { "type": "Point", "coordinates": [ 104.80015, 11.81598 ] } },
{ "type": "Feature", "properties": { "NO": 9.0, "HYMOS_ID": 19806.0, "STATION_NA": "Neak Loung", "U_TM_X": 0.0, "UTM_Y": 1244337.0894200001, "TYPE_OF_DA": "WL, Rainfall", "LINE_AGENC": "DHRW", "TYPE_OF__1": 3.0, "ID_LINE_AG": 0.0, "X": 105.28454, "Y": 11.25919 }, "geometry": { "type": "Point", "coordinates": [ 105.28454, 11.25919 ] } },
{ "type": "Feature", "properties": { "NO": 10.0, "HYMOS_ID": 33402.0, "STATION_NA": "Koh Khel", "U_TM_X": 0.0, "UTM_Y": 1242557.6564100001, "TYPE_OF_DA": "WL, Rainfall", "LINE_AGENC": "DHRW", "TYPE_OF__1": 3.0, "ID_LINE_AG": 0.0, "X": 105.02512, "Y": 11.24324 }, "geometry": { "type": "Point", "coordinates": [ 105.02512, 11.24324 ] } },
{ "type": "Feature", "properties": { "NO": 11.0, "HYMOS_ID": 20103.0, "STATION_NA": "Kompong Chnnang", "U_TM_X": 0.0, "UTM_Y": 1354221.41447, "TYPE_OF_DA": "WL", "LINE_AGENC": "DHRW", "TYPE_OF__1": 2.0, "ID_LINE_AG": 0.0, "X": 104.68216, "Y": 12.2529 }, "geometry": { "type": "Point", "coordinates": [ 104.68216, 12.2529 ] } },
{ "type": "Feature", "properties": { "NO": 12.0, "HYMOS_ID": 620101.0, "STATION_NA": "Kompong Tmar", "U_TM_X": 0.0, "UTM_Y": 1381848.0801, "TYPE_OF_DA": "WL", "LINE_AGENC": "DHRW", "TYPE_OF__1": 2.0, "ID_LINE_AG": 0.0, "X": 105.1271, "Y": 12.50289 }, "geometry": { "type": "Point", "coordinates": [ 105.1271, 12.50289 ] } },
{ "type": "Feature", "properties": { "NO": 13.0, "HYMOS_ID": 570101.0, "STATION_NA": "Kompong Kdey", "U_TM_X": 0.0, "UTM_Y": 1451158.72113, "TYPE_OF_DA": "WL", "LINE_AGENC": "DHRW", "TYPE_OF__1": 2.0, "ID_LINE_AG": 0.0, "X": 104.33519, "Y": 13.12883 }, "geometry": { "type": "Point", "coordinates": [ 104.33519, 13.12883 ] } },
{ "type": "Feature", "properties": { "NO": 14.0, "HYMOS_ID": 600101.0, "STATION_NA": "Kompong Chen", "U_TM_X": 0.0, "UTM_Y": 1430092.01305, "TYPE_OF_DA": "WL", "LINE_AGENC": "DHRW", "TYPE_OF__1": 2.0, "ID_LINE_AG": 0.0, "X": 104.57916, "Y": 12.93885 }, "geometry": { "type": "Point", "coordinates": [ 104.57916, 12.93885 ] } },
{ "type": "Feature", "properties": { "NO": 15.0, "HYMOS_ID": 20106.0, "STATION_NA": "Kompong Loung", "U_TM_X": 0.0, "UTM_Y": 1390341.0, "TYPE_OF_DA": "WL", "LINE_AGENC": "DHRW", "TYPE_OF__1": 2.0, "ID_LINE_AG": 0.0, "X": 104.21048, "Y": 12.57856 }, "geometry": { "type": "Point", "coordinates": [ 104.21048, 12.57856 ] } },
{ "type": "Feature", "properties": { "NO": 16.0, "HYMOS_ID": 450101.0, "STATION_NA": "LumPhat", "U_TM_X": 0.0, "UTM_Y": 1498255.5245300001, "TYPE_OF_DA": "WL", "LINE_AGENC": "DHRW", "TYPE_OF__1": 2.0, "ID_LINE_AG": 0.0, "X": 106.52514, "Y": 13.55092 }, "geometry": { "type": "Point", "coordinates": [ 106.52514, 13.55092 ] } },
{ "type": "Feature", "properties": { "NO": 17.0, "HYMOS_ID": 440102.0, "STATION_NA": "Veun Sai", "U_TM_X": 0.0, "UTM_Y": 1544936.19896, "TYPE_OF_DA": "WL", "LINE_AGENC": "DHRW", "TYPE_OF__1": 2.0, "ID_LINE_AG": 0.0, "X": 106.81014, "Y": 13.97093 }, "geometry": { "type": "Point", "coordinates": [ 106.81014, 13.97093 ] } },
{ "type": "Feature", "properties": { "NO": 53.0, "HYMOS_ID": 10901.0, "STATION_NA": "Pak Beng", "U_TM_X": 0.0, "UTM_Y": 2200133.0, "TYPE_OF_DA": "WL,Rainfall", "LINE_AGENC": "DMH", "TYPE_OF__1": 3.0, "ID_LINE_AG": 0.0, "X": 101.11499, "Y": 19.858 }, "geometry": { "type": "Point", "coordinates": [ 101.11499, 19.858 ] } },
{ "type": "Feature", "properties": { "NO": 54.0, "HYMOS_ID": 11201.0, "STATION_NA": "Luang Prabang", "U_TM_X": 0.0, "UTM_Y": 2200587.0, "TYPE_OF_DA": "WL,Rainfall", "LINE_AGENC": "DMH", "TYPE_OF__1": 3.0, "ID_LINE_AG": 0.0, "X": 102.12632, "Y": 19.8813 }, "geometry": { "type": "Point", "coordinates": [ 102.12632, 19.8813 ] } },
{ "type": "Feature", "properties": { "NO": 55.0, "HYMOS_ID": 11401.0, "STATION_NA": "Paklay", "U_TM_X": 0.0, "UTM_Y": 2016588.0, "TYPE_OF_DA": "WL", "LINE_AGENC": "DMH", "TYPE_OF__1": 2.0, "ID_LINE_AG": 0.0, "X": 101.413, "Y": 18.208 }, "geometry": { "type": "Point", "coordinates": [ 101.413, 18.208 ] } },
{ "type": "Feature", "properties": { "NO": 56.0, "HYMOS_ID": 11901.0, "STATION_NA": "Vientiane", "U_TM_X": 0.0, "UTM_Y": 1983507.0, "TYPE_OF_DA": "WL, Rainfall", "LINE_AGENC": "DMH", "TYPE_OF__1": 3.0, "ID_LINE_AG": 0.0, "X": 102.61994, "Y": 17.928 }, "geometry": { "type": "Point", "coordinates": [ 102.61994, 17.928 ] } },
{ "type": "Feature", "properties": { "NO": 57.0, "HYMOS_ID": 12703.0, "STATION_NA": "Paksane", "U_TM_X": 0.0, "UTM_Y": 2031354.0, "TYPE_OF_DA": "WL, Rainfall", "LINE_AGENC": "DMH", "TYPE_OF__1": 3.0, "ID_LINE_AG": 0.0, "X": 103.66701, "Y": 18.37037 }, "geometry": { "type": "Point", "coordinates": [ 103.66701, 18.37037 ] } },
{ "type": "Feature", "properties": { "NO": 58.0, "HYMOS_ID": 13102.0, "STATION_NA": "Thakhek", "U_TM_X": 0.0, "UTM_Y": 1922717.0, "TYPE_OF_DA": "WL,Rainfall", "LINE_AGENC": "DMH", "TYPE_OF__1": 3.0, "ID_LINE_AG": 0.0, "X": 104.807, "Y": 17.39299 }, "geometry": { "type": "Point", "coordinates": [ 104.807, 17.39299 ] } },
{ "type": "Feature", "properties": { "NO": 59.0, "HYMOS_ID": 13401.0, "STATION_NA": "Savannakhet", "U_TM_X": 0.0, "UTM_Y": 1830796.0, "TYPE_OF_DA": "WL, Rainfall", "LINE_AGENC": "DMH", "TYPE_OF__1": 3.0, "ID_LINE_AG": 0.0, "X": 104.747, "Y": 16.562 }, "geometry": { "type": "Point", "coordinates": [ 104.747, 16.562 ] } },
{ "type": "Feature", "properties": { "NO": 60.0, "HYMOS_ID": 13901.0, "STATION_NA": "Pakse", "U_TM_X": 0.0, "UTM_Y": 1671129.0, "TYPE_OF_DA": "WL,Rainfall", "LINE_AGENC": "DMH", "TYPE_OF__1": 3.0, "ID_LINE_AG": 0.0, "X": 105.867, "Y": 15.117 }, "geometry": { "type": "Point", "coordinates": [ 105.867, 15.117 ] } },
{ "type": "Feature", "properties": { "NO": 61.0, "HYMOS_ID": 230101.0, "STATION_NA": "Bang Pakkanhoung", "U_TM_X": 0.0, "UTM_Y": 2050761.0, "TYPE_OF_DA": "WL,Rainfall", "LINE_AGENC": "DMH", "TYPE_OF__1": 3.0, "ID_LINE_AG": 0.0, "X": 102.433, "Y": 18.533 }, "geometry": { "type": "Point", "coordinates": [ 102.433, 18.533 ] } },
{ "type": "Feature", "properties": { "NO": 62.0, "HYMOS_ID": 250101.0, "STATION_NA": "Moung Mai", "U_TM_X": 0.0, "UTM_Y": 2046260.0, "TYPE_OF_DA": "WL, Rainfall", "LINE_AGENC": "DMH", "TYPE_OF__1": 3.0, "ID_LINE_AG": 0.0, "X": 103.658, "Y": 18.505 }, "geometry": { "type": "Point", "coordinates": [ 103.658, 18.505 ] } },
{ "type": "Feature", "properties": { "NO": 63.0, "HYMOS_ID": 270101.0, "STATION_NA": "Ban Phonsi", "U_TM_X": 0.0, "UTM_Y": 2023509.0, "TYPE_OF_DA": "WL, Rainfall", "LINE_AGENC": "DMH", "TYPE_OF__1": 3.0, "ID_LINE_AG": 0.0, "X": 104.09895, "Y": 18.30201 }, "geometry": { "type": "Point", "coordinates": [ 104.09895, 18.30201 ] } },
{ "type": "Feature", "properties": { "NO": 64.0, "HYMOS_ID": 260101.0, "STATION_NA": "Moung Keo(Borikan)", "U_TM_X": 0.0, "UTM_Y": 2053063.0, "TYPE_OF_DA": "WL, Rainfall", "LINE_AGENC": "DMH", "TYPE_OF__1": 3.0, "ID_LINE_AG": 0.0, "X": 103.733, "Y": 18.567 }, "geometry": { "type": "Point", "coordinates": [ 103.733, 18.567 ] } },
{ "type": "Feature", "properties": { "NO": 65.0, "HYMOS_ID": 320107.0, "STATION_NA": "Mahaxai", "U_TM_X": 0.0, "UTM_Y": 1924931.0, "TYPE_OF_DA": "WL, Rainfall", "LINE_AGENC": "DMH", "TYPE_OF__1": 3.0, "ID_LINE_AG": 0.0, "X": 105.202, "Y": 17.413 }, "geometry": { "type": "Point", "coordinates": [ 105.202, 17.413 ] } },
{ "type": "Feature", "properties": { "NO": 66.0, "HYMOS_ID": 390102.0, "STATION_NA": "Khong Sedone", "U_TM_X": 0.0, "UTM_Y": 1721769.8, "TYPE_OF_DA": "WL, Rainfall", "LINE_AGENC": "DMH", "TYPE_OF__1": 3.0, "ID_LINE_AG": 0.0, "X": 105.815, "Y": 15.575 }, "geometry": { "type": "Point", "coordinates": [ 105.815, 15.575 ] } },
{ "type": "Feature", "properties": { "NO": 67.0, "HYMOS_ID": 390103.0, "STATION_NA": "Saravanne", "U_TM_X": 0.0, "UTM_Y": 1737067.6, "TYPE_OF_DA": "WL,Rainfall", "LINE_AGENC": "DMH", "TYPE_OF__1": 3.0, "ID_LINE_AG": 0.0, "X": 106.45, "Y": 15.71 }, "geometry": { "type": "Point", "coordinates": [ 106.45, 15.71 ] } },
{ "type": "Feature", "properties": { "NO": 68.0, "HYMOS_ID": 430106.0, "STATION_NA": "VeunKhen", "U_TM_X": 0.0, "UTM_Y": 1637747.3, "TYPE_OF_DA": "WL, Rainfall", "LINE_AGENC": "DMH", "TYPE_OF__1": 3.0, "ID_LINE_AG": 0.0, "X": 106.778, "Y": 14.80999 }, "geometry": { "type": "Point", "coordinates": [ 106.778, 14.80999 ] } },
{ "type": "Feature", "properties": { "NO": 69.0, "HYMOS_ID": 100102.0, "STATION_NA": "Moung Ngoy", "U_TM_X": 0.0, "UTM_Y": 2275742.0, "TYPE_OF_DA": "WL,Rainfall", "LINE_AGENC": "DMH", "TYPE_OF__1": 3.0, "ID_LINE_AG": 0.0, "X": 102.6, "Y": 20.567 }, "geometry": { "type": "Point", "coordinates": [ 102.6, 20.567 ] } },
{ "type": "Feature", "properties": { "NO": 70.0, "HYMOS_ID": 120101.0, "STATION_NA": "Ban Mixay", "U_TM_X": 0.0, "UTM_Y": 2190052.0, "TYPE_OF_DA": "WL,", "LINE_AGENC": "DMH", "TYPE_OF__1": 2.0, "ID_LINE_AG": 0.0, "X": 102.177, "Y": 19.78699 }, "geometry": { "type": "Point", "coordinates": [ 102.177, 19.78699 ] } },
{ "type": "Feature", "properties": { "NO": 73.0, "HYMOS_ID": 180207.0, "STATION_NA": "Vang Vieng", "U_TM_X": 0.0, "UTM_Y": 2095028.0, "TYPE_OF_DA": "WL, Rainfall", "LINE_AGENC": "DMH", "TYPE_OF__1": 3.0, "ID_LINE_AG": 0.0, "X": 102.45, "Y": 18.933 }, "geometry": { "type": "Point", "coordinates": [ 102.45, 18.933 ] } },
{ "type": "Feature", "properties": { "NO": 74.0, "HYMOS_ID": 230113.0, "STATION_NA": "Phiengluang", "U_TM_X": 0.0, "UTM_Y": 2158871.39, "TYPE_OF_DA": "WL,Rainfall", "LINE_AGENC": "DMH", "TYPE_OF__1": 1.0, "ID_LINE_AG": 0.0, "X": 103.05, "Y": 19.517 }, "geometry": { "type": "Point", "coordinates": [ 103.05, 19.517 ] } },
{ "type": "Feature", "properties": { "NO": 78.0, "HYMOS_ID": 270903.0, "STATION_NA": "Ban Signo", "U_TM_X": 0.0, "UTM_Y": 1971385.6, "TYPE_OF_DA": "WL,Rainfall", "LINE_AGENC": "DMH", "TYPE_OF__1": 3.0, "ID_LINE_AG": 0.0, "X": 105.05, "Y": 17.833 }, "geometry": { "type": "Point", "coordinates": [ 105.05, 17.833 ] } },
{ "type": "Feature", "properties": { "NO": 80.0, "HYMOS_ID": 14301.0, "STATION_NA": "Ban Chan Noi", "U_TM_X": 0.0, "UTM_Y": 1582647.8, "TYPE_OF_DA": "WL", "LINE_AGENC": "DMH", "TYPE_OF__1": 2.0, "ID_LINE_AG": 0.0, "X": 105.887, "Y": 14.317 }, "geometry": { "type": "Point", "coordinates": [ 105.887, 14.317 ] } },
{ "type": "Feature", "properties": { "NO": 83.0, "HYMOS_ID": 350106.0, "STATION_NA": "Highway Bridge", "U_TM_X": 0.0, "UTM_Y": 1832659.7, "TYPE_OF_DA": "WL, Rainfall", "LINE_AGENC": "DMH", "TYPE_OF__1": 3.0, "ID_LINE_AG": 0.0, "X": 105.913, "Y": 16.577 }, "geometry": { "type": "Point", "coordinates": [ 105.913, 16.577 ] } },
{ "type": "Feature", "properties": { "NO": 85.0, "HYMOS_ID": 390104.0, "STATION_NA": "Souvanna Khill", "U_TM_X": 0.0, "UTM_Y": 1702084.0, "TYPE_OF_DA": "WL", "LINE_AGENC": "DMH", "TYPE_OF__1": 2.0, "ID_LINE_AG": 0.0, "X": 105.825, "Y": 15.397 }, "geometry": { "type": "Point", "coordinates": [ 105.825, 15.397 ] } },
{ "type": "Feature", "properties": { "NO": 92.0, "HYMOS_ID": 150609.0, "STATION_NA": "Sekong", "U_TM_X": 0.0, "UTM_Y": 1668020.0, "TYPE_OF_DA": "WL, Rainfall", "LINE_AGENC": "DMH", "TYPE_OF__1": 3.0, "ID_LINE_AG": 0.0, "X": 106.85, "Y": 15.083 }, "geometry": { "type": "Point", "coordinates": [ 106.85, 15.083 ] } },
{ "type": "Feature", "properties": { "NO": 94.0, "HYMOS_ID": 10501.0, "STATION_NA": "Chiang Saen", "U_TM_X": 0.0, "UTM_Y": 2249162.3743699999, "TYPE_OF_DA": "WL, Rainfall", "LINE_AGENC": "DWR", "TYPE_OF__1": 3.0, "ID_LINE_AG": 0.0, "X": 100.07958, "Y": 20.2742 }, "geometry": { "type": "Point", "coordinates": [ 100.07958, 20.2742 ] } },
{ "type": "Feature", "properties": { "NO": 95.0, "HYMOS_ID": 10801.0, "STATION_NA": "Chiang Khong", "U_TM_X": 0.0, "UTM_Y": 2247621.3919299999, "TYPE_OF_DA": "WL,", "LINE_AGENC": "DWR", "TYPE_OF__1": 2.0, "ID_LINE_AG": 0.0, "X": 100.40654, "Y": 20.2692 }, "geometry": { "type": "Point", "coordinates": [ 100.40654, 20.2692 ] } },
{ "type": "Feature", "properties": { "NO": 96.0, "HYMOS_ID": 11903.0, "STATION_NA": "Chian Khan", "U_TM_X": 0.0, "UTM_Y": 1981787.5967300001, "TYPE_OF_DA": "WL,Rainfall", "LINE_AGENC": "DWR", "TYPE_OF__1": 3.0, "ID_LINE_AG": 0.0, "X": 101.66443, "Y": 17.89843 }, "geometry": { "type": "Point", "coordinates": [ 101.66443, 17.89843 ] } },
{ "type": "Feature", "properties": { "NO": 97.0, "HYMOS_ID": 13801.0, "STATION_NA": "Khong Chiam", "U_TM_X": 0.0, "UTM_Y": 1693425.0391500001, "TYPE_OF_DA": "WL, Rainfall", "LINE_AGENC": "DWR", "TYPE_OF__1": 3.0, "ID_LINE_AG": 0.0, "X": 105.49601, "Y": 15.31969 }, "geometry": { "type": "Point", "coordinates": [ 105.49601, 15.31969 ] } },
{ "type": "Feature", "properties": { "NO": 98.0, "HYMOS_ID": 12001.0, "STATION_NA": "Nong Khai", "U_TM_X": 0.0, "UTM_Y": 1977893.72163, "TYPE_OF_DA": "WL,Rainfall", "LINE_AGENC": "DWR", "TYPE_OF__1": 3.0, "ID_LINE_AG": 0.0, "X": 102.7163, "Y": 17.87845 }, "geometry": { "type": "Point", "coordinates": [ 102.7163, 17.87845 ] } },
{ "type": "Feature", "properties": { "NO": 99.0, "HYMOS_ID": 13101.0, "STATION_NA": "Nakhon Phanom", "U_TM_X": 0.0, "UTM_Y": 1923440.3762300001, "TYPE_OF_DA": "WL, Rainfall", "LINE_AGENC": "DWR", "TYPE_OF__1": 3.0, "ID_LINE_AG": 0.0, "X": 104.79905, "Y": 17.39952 }, "geometry": { "type": "Point", "coordinates": [ 104.79905, 17.39952 ] } },
{ "type": "Feature", "properties": { "NO": 100.0, "HYMOS_ID": 13402.0, "STATION_NA": "Mukdahan", "U_TM_X": 0.0, "UTM_Y": 1828540.07968, "TYPE_OF_DA": "WL,Rainfall", "LINE_AGENC": "DWR", "TYPE_OF__1": 3.0, "ID_LINE_AG": 0.0, "X": 104.73308, "Y": 16.54159 }, "geometry": { "type": "Point", "coordinates": [ 104.73308, 16.54159 ] } },
{ "type": "Feature", "properties": { "NO": 103.0, "HYMOS_ID": 290102.0, "STATION_NA": "Ban Tha Kok Daen", "U_TM_X": 0.0, "UTM_Y": 1993987.0, "TYPE_OF_DA": "WL, Rainfall", "LINE_AGENC": "DWR", "TYPE_OF__1": 3.0, "ID_LINE_AG": 0.0, "X": 103.4962, "Y": 18.03145 }, "geometry": { "type": "Point", "coordinates": [ 103.4962, 18.03145 ] } },
{ "type": "Feature", "properties": { "NO": 104.0, "HYMOS_ID": 19803.0, "STATION_NA": "Tan Chau", "U_TM_X": 0.0, "UTM_Y": 1193891.1713, "TYPE_OF_DA": "WL, Rainfall", "LINE_AGENC": "SRHMC", "TYPE_OF__1": 3.0, "ID_LINE_AG": 0.0, "X": 105.24, "Y": 10.803 }, "geometry": { "type": "Point", "coordinates": [ 105.24, 10.803 ] } },
{ "type": "Feature", "properties": { "NO": 105.0, "HYMOS_ID": 19804.0, "STATION_NA": "My Thuan", "U_TM_X": 0.0, "UTM_Y": 1135419.0360600001, "TYPE_OF_DA": "WL, Rainfall", "LINE_AGENC": "SRHMC", "TYPE_OF__1": 3.0, "ID_LINE_AG": 0.0, "X": 105.9, "Y": 10.273 }, "geometry": { "type": "Point", "coordinates": [ 105.9, 10.273 ] } },
{ "type": "Feature", "properties": { "NO": 106.0, "HYMOS_ID": 39801.0, "STATION_NA": "Chau Doc", "U_TM_X": 0.0, "UTM_Y": 1183269.5475900001, "TYPE_OF_DA": "WL, Rainfall", "LINE_AGENC": "SRHMC", "TYPE_OF__1": 3.0, "ID_LINE_AG": 0.0, "X": 105.133, "Y": 10.707 }, "geometry": { "type": "Point", "coordinates": [ 105.133, 10.707 ] } },
{ "type": "Feature", "properties": { "NO": 107.0, "HYMOS_ID": 39803.0, "STATION_NA": "Can Tho", "U_TM_X": 0.0, "UTM_Y": 1108849.8281099999, "TYPE_OF_DA": "WL, Rainfall", "LINE_AGENC": "SRHMC", "TYPE_OF__1": 3.0, "ID_LINE_AG": 0.0, "X": 105.79, "Y": 10.033 }, "geometry": { "type": "Point", "coordinates": [ 105.79, 10.033 ] } },
{ "type": "Feature", "properties": { "NO": 108.0, "HYMOS_ID": 980601.0, "STATION_NA": "Vam Nao", "U_TM_X": 0.0, "UTM_Y": 1168693.95961, "TYPE_OF_DA": "WL, Rainfall", "LINE_AGENC": "SRHMC", "TYPE_OF__1": 3.0, "ID_LINE_AG": 0.0, "X": 105.357, "Y": 10.575 }, "geometry": { "type": "Point", "coordinates": [ 105.357, 10.575 ] } },
{ "type": "Feature", "properties": { "NO": 109.0, "HYMOS_ID": 451305.0, "STATION_NA": "Ban Don", "U_TM_X": 0.0, "UTM_Y": 1421861.15971, "TYPE_OF_DA": "WL, Rainfall", "LINE_AGENC": "SRHMC", "TYPE_OF__1": 3.0, "ID_LINE_AG": 0.0, "X": 107.783, "Y": 12.85 }, "geometry": { "type": "Point", "coordinates": [ 107.783, 12.85 ] } }
]
}
